[{
	stationName: 'Attiguppe',
	line: 'Purple',
	terminalStation: false,
	transferStation: false,
	functional: true,
	lat: '12.961957',
	lng: '77.533582',
	opened: '16-Nov-2015',
	layout: 'Elevated'
	
},{
	stationName: 'Baiyyappanahalli',
	line: 'Purple',
	terminalStation: true,
	transferStation: false,
	functional: true,
	lat: '12.9913',
	lng: '77.6521',
	opened: '20-Oct-2011',
	layout: 'At Grade'
},{
	stationName: 'Banashankari',
	line: 'Green',
	terminalStation: false,
	transferStation: false,
	functional: true,
	lat: '12.9373',
	lng: '77.5543',
	opened: '18-June-2017',
	layout: 'Elevated'
},{
	stationName: 'Central College',
	line: 'Purple',
	terminalStation: false,
	transferStation: false,
	functional: true,
	lat: '12.974912',
	lng: '77.584863',
	opened: '29-Apr-2016',
	layout: 'Underground'
},{
	stationName: 'Chickpete',
	line: 'Green',
	terminalStation: false,
	transferStation: false,
	functional: true,
	lat: '12.967761',
	lng: '77.574778',
	opened: '18-June-2017',
	layout: 'Underground'
},{
	stationName: 'City Railway Station',
	line: 'Purple',
	terminalStation: false,
	transferStation: false,
	functional: true,
	lat: '12.976961',
	lng: '77.565508',
	opened: '29-Apr-2016',
	layout: 'Underground'
}]